[
    {
      "id": 6,
      "name": "Ankara",
      "latitude": "39.9208",
      "longitude": "32.8541",
      "population": 5270575,
      "region": "İç Anadolu"
    },
    {
      "id": 7,
      "name": "Antalya",
      "latitude": "36.8841",
      "longitude": "30.7056",
      "population": 2288456,
      "region": "Akdeniz"
    },
    {
      "id": 16,
      "name": "Bursa",
      "latitude": "40.2669",
      "longitude": "29.0634",
      "population": 2842547,
      "region": "Marmara"
    },
    {
      "id": 24,
      "name": "Erzincan",
      "latitude": "39.7500",
      "longitude": "39.5000",
      "population": 222918,
      "region": "Doğu Anadolu"
    },
    {
      "id": 34,
      "name": "İstanbul",
      "latitude": "41.0053",
      "longitude": "28.9770",
      "population": 14657434,
      "region": "Marmara"
    },
    {
      "id": 35,
      "name": "İzmir",
      "latitude": "38.4189",
      "longitude": "27.1287",
      "population": 4168415,
      "region": "Ege"
    },
    {
      "id": 42,
      "name": "Konya",
      "latitude": "37.8667",
      "longitude": "32.4833",
      "population": 2130544,
      "region": "İç Anadolu"
    }
]